{
    "metadata": {
        "project_name": "DaaSFac Airport Database [Lite]",
        "license_type": "AGPL-3.0 / Open Source",
        "version": "1.0.0",
        "export_dir": "exports",
        "continent_sub_dir": "by_continent",
        "author": "DaaSFac",
        "license": " Copyright (C) 2025 Gtaingoria-OpS. This program is free software: you can redistribute it and/or modify it under the terms of the GNU Affero General Public License as published by the Free Software Foundation, either version 3 of the License, or (at your option) any later version. This program is distributed in the hope that it will be useful, but WITHOUT ANY WARRANTY; without even the implied warranty of MERCHANTABILITY or FITNESS FOR A PARTICULAR PURPOSE.  See the GNU Affero General Public License for more details. You should have received a copy of the GNU Affero General Public License along with this program.  If not, see <https://www.gnu.org/licenses/>.",
        "generated_at": "2025-12-31 23:50:23"
    },
    "scope": "Global Master List",
    "data": [
        {
            "Continent": "Africa",
            "Country": "Algeria",
            "City": "",
            "Airport Name": "Bou Saada Airport",
            "IATA": "BUJ",
            "ICAO": "DAAD",
            "Latitude": 35.3325,
            "Longitude": 4.20639,
            "Timezone": "Africa/Algiers"
        },
        {
            "Continent": "Africa",
            "Country": "Algeria",
            "City": "",
            "Airport Name": "Hassi R'Mel Airport",
            "IATA": "HRM",
            "ICAO": "DAFH",
            "Latitude": 32.9304,
            "Longitude": 3.31154,
            "Timezone": "Africa/Algiers"
        },
        {
            "Continent": "Africa",
            "Country": "Algeria",
            "City": "",
            "Airport Name": "Tafaraoui Airport",
            "IATA": "TAF",
            "ICAO": "DAOL",
            "Latitude": 35.5424,
            "Longitude": -0.53228,
            "Timezone": "Africa/Algiers"
        },
        {
            "Continent": "Africa",
            "Country": "Algeria",
            "City": "",
            "Airport Name": "Sidi Bel Abbes Airport",
            "IATA": "BFW",
            "ICAO": "DAOS",
            "Latitude": 35.1718,
            "Longitude": -0.59328,
            "Timezone": "Africa/Algiers"
        },
        {
            "Continent": "Africa",
            "Country": "Algeria",
            "City": "",
            "Airport Name": "Ghriss Airport",
            "IATA": "MUW",
            "ICAO": "DAOV",
            "Latitude": 35.2077,
            "Longitude": 0.14714,
            "Timezone": "Africa/Algiers"
        },
        {
            "Continent": "Africa",
            "Country": "Algeria",
            "City": "",
            "Airport Name": "Touat Cheikh Sidi Mohamed Belkebir Airport",
            "IATA": "AZR",
            "ICAO": "DAUA",
            "Latitude": 27.8376,
            "Longitude": -0.18641,
            "Timezone": "Africa/Algiers"
        },
        {
            "Continent": "Africa",
            "Country": "Algeria",
            "City": "",
            "Airport Name": "El Golea Airport",
            "IATA": "ELG",
            "ICAO": "DAUE",
            "Latitude": 30.5713,
            "Longitude": 2.85959,
            "Timezone": "Africa/Algiers"
        },
        {
            "Continent": "Africa",
            "Country": "Algeria",
            "City": "Algiers",
            "Airport Name": "Houari Boumediene Airport",
            "IATA": "ALG",
            "ICAO": "DAAG",
            "Latitude": 36.691,
            "Longitude": 3.21541,
            "Timezone": "Africa/Algiers"
        },
        {
            "Continent": "Africa",
            "Country": "Algeria",
            "City": "Amenas",
            "Airport Name": "In Amenas Airport",
            "IATA": "IAM",
            "ICAO": "DAUZ",
            "Latitude": 28.0515,
            "Longitude": 9.64291,
            "Timezone": "Africa/Algiers"
        },
        {
            "Continent": "Africa",
            "Country": "Algeria",
            "City": "Annabah",
            "Airport Name": "Annaba Airport",
            "IATA": "AAE",
            "ICAO": "DABB",
            "Latitude": 36.8222,
            "Longitude": 7.80917,
            "Timezone": "Africa/Algiers"
        },
        {
            "Continent": "Africa",
            "Country": "Algeria",
            "City": "Batna",
            "Airport Name": "Batna Airport",
            "IATA": "BLJ",
            "ICAO": "DABT",
            "Latitude": 35.7521,
            "Longitude": 6.30859,
            "Timezone": "Africa/Algiers"
        },
        {
            "Continent": "Africa",
            "Country": "Algeria",
            "City": "Bechar",
            "Airport Name": "Bechar Boudghene Ben Ali Lotfi Airport",
            "IATA": "CBH",
            "ICAO": "DAOR",
            "Latitude": 31.6457,
            "Longitude": -2.26986,
            "Timezone": "Africa/Algiers"
        },
        {
            "Continent": "Africa",
            "Country": "Algeria",
            "City": "Bejaia",
            "Airport Name": "Soummam Airport",
            "IATA": "BJA",
            "ICAO": "DAAE",
            "Latitude": 36.712,
            "Longitude": 5.06992,
            "Timezone": "Africa/Algiers"
        },
        {
            "Continent": "Africa",
            "Country": "Algeria",
            "City": "Biskra",
            "Airport Name": "Biskra Airport",
            "IATA": "BSK",
            "ICAO": "DAUB",
            "Latitude": 34.7933,
            "Longitude": 5.73823,
            "Timezone": "Africa/Algiers"
        },
        {
            "Continent": "Africa",
            "Country": "Algeria",
            "City": "Bordj Badji Mokhtar",
            "Airport Name": "Bordj Badji Mokhtar Airport",
            "IATA": "BMW",
            "ICAO": "DATM",
            "Latitude": 21.375,
            "Longitude": 0.92389,
            "Timezone": "Africa/Algiers"
        },
        {
            "Continent": "Africa",
            "Country": "Algeria",
            "City": "Chlef",
            "Airport Name": "Chlef Aboubakr Belkaid Airport",
            "IATA": "CFK",
            "ICAO": "DAOI",
            "Latitude": 36.216828,
            "Longitude": 1.340739,
            "Timezone": "Africa/Algiers"
        },
        {
            "Continent": "Africa",
            "Country": "Algeria",
            "City": "Constantine",
            "Airport Name": "Mohamed Boudiaf International Airport",
            "IATA": "CZL",
            "ICAO": "DABC",
            "Latitude": 36.276,
            "Longitude": 6.62039,
            "Timezone": "Africa/Algiers"
        },
        {
            "Continent": "Africa",
            "Country": "Algeria",
            "City": "Djanet",
            "Airport Name": "Djanet Inedbirene Airport",
            "IATA": "DJG",
            "ICAO": "DAAJ",
            "Latitude": 24.2928,
            "Longitude": 9.45244,
            "Timezone": "Africa/Algiers"
        },
        {
            "Continent": "Africa",
            "Country": "Algeria",
            "City": "El Bayadh",
            "Airport Name": "El Bayadh Airport",
            "IATA": "EBH",
            "ICAO": "DAOY",
            "Latitude": 33.72167,
            "Longitude": 1.0925,
            "Timezone": "Africa/Algiers"
        },
        {
            "Continent": "Africa",
            "Country": "Algeria",
            "City": "Ghardaia",
            "Airport Name": "Noumerat - Moufdi Zakaria Airport",
            "IATA": "GHA",
            "ICAO": "DAUG",
            "Latitude": 32.3841,
            "Longitude": 3.79411,
            "Timezone": "Africa/Algiers"
        },
        {
            "Continent": "Africa",
            "Country": "Algeria",
            "City": "Guemar",
            "Airport Name": "Guemar Airport",
            "IATA": "ELU",
            "ICAO": "DAUO",
            "Latitude": 33.5114,
            "Longitude": 6.77679,
            "Timezone": "Africa/Algiers"
        },
        {
            "Continent": "Africa",
            "Country": "Algeria",
            "City": "Hassi Messaoud",
            "Airport Name": "Oued Irara Airport",
            "IATA": "HME",
            "ICAO": "DAUH",
            "Latitude": 31.673,
            "Longitude": 6.14044,
            "Timezone": "Africa/Algiers"
        },
        {
            "Continent": "Africa",
            "Country": "Algeria",
            "City": "Illizi",
            "Airport Name": "Illizi Takhamalt Airport",
            "IATA": "VVZ",
            "ICAO": "DAAP",
            "Latitude": 26.7235,
            "Longitude": 8.62265,
            "Timezone": "Africa/Algiers"
        },
        {
            "Continent": "Africa",
            "Country": "Algeria",
            "City": "In Guezzam",
            "Airport Name": "In Guezzam Airport",
            "IATA": "INF",
            "ICAO": "DATG",
            "Latitude": 19.567,
            "Longitude": 5.75,
            "Timezone": "Africa/Algiers"
        },
        {
            "Continent": "Africa",
            "Country": "Algeria",
            "City": "In Salah",
            "Airport Name": "In Salah Airport",
            "IATA": "INZ",
            "ICAO": "DAUI",
            "Latitude": 27.251,
            "Longitude": 2.51202,
            "Timezone": "Africa/Algiers"
        },
        {
            "Continent": "Africa",
            "Country": "Algeria",
            "City": "Jijel",
            "Airport Name": "Jijel Ferhat Abbas Airport",
            "IATA": "GJL",
            "ICAO": "DAAV",
            "Latitude": 36.7951,
            "Longitude": 5.87361,
            "Timezone": "Africa/Algiers"
        },
        {
            "Continent": "Africa",
            "Country": "Algeria",
            "City": "Laghouat",
            "Airport Name": "Laghouat Airport",
            "IATA": "LOO",
            "ICAO": "DAUL",
            "Latitude": 33.7644,
            "Longitude": 2.92834,
            "Timezone": "Africa/Algiers"
        },
        {
            "Continent": "Africa",
            "Country": "Algeria",
            "City": "Mecheria",
            "Airport Name": "Mecheria Airport",
            "IATA": "MZW",
            "ICAO": "DAAY",
            "Latitude": 33.5359,
            "Longitude": -0.24235,
            "Timezone": "Africa/Algiers"
        },
        {
            "Continent": "Africa",
            "Country": "Algeria",
            "City": "Oran",
            "Airport Name": "Es Senia Airport",
            "IATA": "ORN",
            "ICAO": "DAOO",
            "Latitude": 35.6239,
            "Longitude": -0.62118,
            "Timezone": "Africa/Algiers"
        },
        {
            "Continent": "Africa",
            "Country": "Algeria",
            "City": "Ouargla",
            "Airport Name": "Ain el Beida Airport",
            "IATA": "OGX",
            "ICAO": "DAUU",
            "Latitude": 31.9172,
            "Longitude": 5.41278,
            "Timezone": "Africa/Algiers"
        },
        {
            "Continent": "Africa",
            "Country": "Algeria",
            "City": "Setif",
            "Airport Name": "Ain Arnat Airport",
            "IATA": "QSF",
            "ICAO": "DAAS",
            "Latitude": 36.1781,
            "Longitude": 5.32449,
            "Timezone": "Africa/Algiers"
        },
        {
            "Continent": "Africa",
            "Country": "Algeria",
            "City": "Tamanrasset",
            "Airport Name": "Aguenar \u2013 Hadj Bey Akhamok Airport",
            "IATA": "TMR",
            "ICAO": "DAAT",
            "Latitude": 22.8115,
            "Longitude": 5.45108,
            "Timezone": "Africa/Algiers"
        },
        {
            "Continent": "Africa",
            "Country": "Algeria",
            "City": "Tebessi",
            "Airport Name": "Cheikh Larbi Tebessi Airport",
            "IATA": "TEE",
            "ICAO": "DABS",
            "Latitude": 35.4316,
            "Longitude": 8.12072,
            "Timezone": "Africa/Algiers"
        },
        {
            "Continent": "Africa",
            "Country": "Algeria",
            "City": "Tiaret",
            "Airport Name": "Bou Chekif Airport",
            "IATA": "TID",
            "ICAO": "DAOB",
            "Latitude": 35.3411,
            "Longitude": 1.46315,
            "Timezone": "Africa/Algiers"
        },
        {
            "Continent": "Africa",
            "Country": "Algeria",
            "City": "Timimoun",
            "Airport Name": "Timimoun Airport",
            "IATA": "TMX",
            "ICAO": "DAUT",
            "Latitude": 29.2371,
            "Longitude": 0.27603,
            "Timezone": "Africa/Algiers"
        },
        {
            "Continent": "Africa",
            "Country": "Algeria",
            "City": "Tindouf",
            "Airport Name": "Tindouf Airport",
            "IATA": "TIN",
            "ICAO": "DAOF",
            "Latitude": 27.7004,
            "Longitude": -8.1671,
            "Timezone": "Africa/Algiers"
        },
        {
            "Continent": "Africa",
            "Country": "Algeria",
            "City": "Tlemcen",
            "Airport Name": "Zenata \u2013 Messali El Hadj Airport",
            "IATA": "TLM",
            "ICAO": "DAON",
            "Latitude": 35.0167,
            "Longitude": -1.45,
            "Timezone": "Africa/Algiers"
        },
        {
            "Continent": "Africa",
            "Country": "Algeria",
            "City": "Touggourt",
            "Airport Name": "Touggourt Sidi Madhi Airport",
            "IATA": "TGR",
            "ICAO": "DAUK",
            "Latitude": 33.0678,
            "Longitude": 6.08867,
            "Timezone": "Africa/Algiers"
        },
        {
            "Continent": "Africa",
            "Country": "Angola",
            "City": "Ambriz",
            "Airport Name": "Ambriz Airport",
            "IATA": "AZZ",
            "ICAO": "FNAM",
            "Latitude": -7.86222,
            "Longitude": 13.1161,
            "Timezone": "Africa/Luanda"
        },
        {
            "Continent": "Africa",
            "Country": "Angola",
            "City": "Benguela",
            "Airport Name": "Benguela Airport",
            "IATA": "BUG",
            "ICAO": "FNBG",
            "Latitude": -12.609,
            "Longitude": 13.4037,
            "Timezone": "Africa/Luanda"
        },
        {
            "Continent": "Africa",
            "Country": "Angola",
            "City": "Cabinda",
            "Airport Name": "Cabinda Airport",
            "IATA": "CAB",
            "ICAO": "FNCA",
            "Latitude": -5.59699,
            "Longitude": 12.1884,
            "Timezone": "Africa/Luanda"
        },
        {
            "Continent": "Africa",
            "Country": "Angola",
            "City": "Cafunfo",
            "Airport Name": "Cafunfo Airport",
            "IATA": "CFF",
            "ICAO": "FNCF",
            "Latitude": -8.78361,
            "Longitude": 17.9897,
            "Timezone": "Africa/Luanda"
        },
        {
            "Continent": "Africa",
            "Country": "Angola",
            "City": "Catumbela",
            "Airport Name": "Catumbela Airport",
            "IATA": "CBT",
            "ICAO": "FNCT",
            "Latitude": -12.4792,
            "Longitude": 13.4869,
            "Timezone": "Africa/Luanda"
        },
        {
            "Continent": "Africa",
            "Country": "Angola",
            "City": "Cazombo",
            "Airport Name": "Cazombo Airport",
            "IATA": "CAV",
            "ICAO": "FNCZ",
            "Latitude": -11.8931,
            "Longitude": 22.9164,
            "Timezone": "Africa/Luanda"
        },
        {
            "Continent": "Africa",
            "Country": "Angola",
            "City": "Chitato",
            "Airport Name": "Chitato Airport",
            "IATA": "PGI",
            "ICAO": "FNCH",
            "Latitude": -7.35889,
            "Longitude": 20.8047,
            "Timezone": "Africa/Luanda"
        },
        {
            "Continent": "Africa",
            "Country": "Angola",
            "City": "Chitato",
            "Airport Name": "Dundo Airport",
            "IATA": "DUE",
            "ICAO": "FNDU",
            "Latitude": -7.40089,
            "Longitude": 20.8185,
            "Timezone": "Africa/Luanda"
        },
        {
            "Continent": "Africa",
            "Country": "Angola",
            "City": "Cuito Cuanavale",
            "Airport Name": "Cuito Cuanavale Airport",
            "IATA": "CTI",
            "ICAO": "FNCV",
            "Latitude": -15.1603,
            "Longitude": 19.1561,
            "Timezone": "Africa/Luanda"
        },
        {
            "Continent": "Africa",
            "Country": "Angola",
            "City": "Huambo",
            "Airport Name": "Nova Lisboa Airport",
            "IATA": "NOV",
            "ICAO": "FNHU",
            "Latitude": -12.8089,
            "Longitude": 15.7605,
            "Timezone": "Africa/Luanda"
        },
        {
            "Continent": "Africa",
            "Country": "Angola",
            "City": "Kuito",
            "Airport Name": "Kuito Airport",
            "IATA": "SVP",
            "ICAO": "FNKU",
            "Latitude": -12.4046,
            "Longitude": 16.9474,
            "Timezone": "Africa/Luanda"
        },
        {
            "Continent": "Africa",
            "Country": "Angola",
            "City": "Lobito",
            "Airport Name": "Lobito Airport",
            "IATA": "LLT",
            "ICAO": "FNLB",
            "Latitude": -12.3712,
            "Longitude": 13.5366,
            "Timezone": "Africa/Luanda"
        },
        {
            "Continent": "Africa",
            "Country": "Angola",
            "City": "Luanda",
            "Airport Name": "Dr. Antonio Agostinho Neto International Airport",
            "IATA": "NBJ",
            "ICAO": "FNBJ",
            "Latitude": -9.046778,
            "Longitude": 13.507194,
            "Timezone": "Africa/Luanda"
        },
        {
            "Continent": "Africa",
            "Country": "Angola",
            "City": "Luanda",
            "Airport Name": "Quatro De Fevereiro Airport",
            "IATA": "LAD",
            "ICAO": "FNLU",
            "Latitude": -8.85837,
            "Longitude": 13.2312,
            "Timezone": "Africa/Luanda"
        },
        {
            "Continent": "Africa",
            "Country": "Angola",
            "City": "Luau",
            "Airport Name": "Luau Airport",
            "IATA": "UAL",
            "ICAO": "FNUA",
            "Latitude": -10.7158,
            "Longitude": 22.2311,
            "Timezone": "Africa/Luanda"
        },
        {
            "Continent": "Africa",
            "Country": "Angola",
            "City": "Lubango",
            "Airport Name": "Lubango Airport",
            "IATA": "SDD",
            "ICAO": "FNUB",
            "Latitude": -14.9247,
            "Longitude": 13.575,
            "Timezone": "Africa/Luanda"
        },
        {
            "Continent": "Africa",
            "Country": "Angola",
            "City": "Lucapa",
            "Airport Name": "Lucapa Airport",
            "IATA": "LBZ",
            "ICAO": "FNLK",
            "Latitude": -8.44573,
            "Longitude": 20.73209,
            "Timezone": "Africa/Luanda"
        },
        {
            "Continent": "Africa",
            "Country": "Angola",
            "City": "Luena",
            "Airport Name": "Luena Airport",
            "IATA": "LUO",
            "ICAO": "FNUE",
            "Latitude": -11.7681,
            "Longitude": 19.8977,
            "Timezone": "Africa/Luanda"
        },
        {
            "Continent": "Africa",
            "Country": "Angola",
            "City": "Luzamba",
            "Airport Name": "Luzamba Airport",
            "IATA": "LZM",
            "ICAO": "FNLZ",
            "Latitude": -9.11596,
            "Longitude": 18.0493,
            "Timezone": "Africa/Luanda"
        },
        {
            "Continent": "Africa",
            "Country": "Angola",
            "City": "Malanje",
            "Airport Name": "Malanje Airport",
            "IATA": "MEG",
            "ICAO": "FNMA",
            "Latitude": -9.52509,
            "Longitude": 16.3124,
            "Timezone": "Africa/Luanda"
        },
        {
            "Continent": "Africa",
            "Country": "Angola",
            "City": "Mbanza Congo",
            "Airport Name": "Mbanza Congo Airport",
            "IATA": "SSY",
            "ICAO": "FNBC",
            "Latitude": -6.2699,
            "Longitude": 14.247,
            "Timezone": "Africa/Luanda"
        },
        {
            "Continent": "Africa",
            "Country": "Angola",
            "City": "Menongue",
            "Airport Name": "Menongue Airport",
            "IATA": "SPP",
            "ICAO": "FNME",
            "Latitude": -14.6576,
            "Longitude": 17.7198,
            "Timezone": "Africa/Luanda"
        },
        {
            "Continent": "Africa",
            "Country": "Angola",
            "City": "N'zeto",
            "Airport Name": "N'zeto Airport",
            "IATA": "ARZ",
            "ICAO": "FNZE",
            "Latitude": -7.25944,
            "Longitude": 12.8631,
            "Timezone": "Africa/Luanda"
        },
        {
            "Continent": "Africa",
            "Country": "Angola",
            "City": "Namibe",
            "Airport Name": "Namibe Airport",
            "IATA": "MSZ",
            "ICAO": "FNMO",
            "Latitude": -15.2612,
            "Longitude": 12.1468,
            "Timezone": "Africa/Luanda"
        },
        {
            "Continent": "Africa",
            "Country": "Angola",
            "City": "Negage",
            "Airport Name": "Negage Airport",
            "IATA": "GXG",
            "ICAO": "FNNG",
            "Latitude": -7.75451,
            "Longitude": 15.2877,
            "Timezone": "Africa/Luanda"
        },
        {
            "Continent": "Africa",
            "Country": "Angola",
            "City": "Ngiva",
            "Airport Name": "Ngjiva Pereira Airport",
            "IATA": "VPE",
            "ICAO": "FNGI",
            "Latitude": -17.0435,
            "Longitude": 15.6838,
            "Timezone": "Africa/Luanda"
        },
        {
            "Continent": "Africa",
            "Country": "Angola",
            "City": "Nzagi",
            "Airport Name": "Nzagi Airport",
            "IATA": "NZA",
            "ICAO": "FNZG",
            "Latitude": -7.71694,
            "Longitude": 21.3582,
            "Timezone": "Africa/Luanda"
        },
        {
            "Continent": "Africa",
            "Country": "Angola",
            "City": "Port Amboim",
            "Airport Name": "Porto Amboim Airport",
            "IATA": "PBN",
            "ICAO": "FNPA",
            "Latitude": -10.722,
            "Longitude": 13.7655,
            "Timezone": "Africa/Luanda"
        },
        {
            "Continent": "Africa",
            "Country": "Angola",
            "City": "Saurimo",
            "Airport Name": "Saurimo Airport",
            "IATA": "VHC",
            "ICAO": "FNSA",
            "Latitude": -9.68907,
            "Longitude": 20.4319,
            "Timezone": "Africa/Luanda"
        },
        {
            "Continent": "Africa",
            "Country": "Angola",
            "City": "Soyo",
            "Airport Name": "Soyo Airport",
            "IATA": "SZA",
            "ICAO": "FNSO",
            "Latitude": -6.14109,
            "Longitude": 12.3718,
            "Timezone": "Africa/Luanda"
        },
        {
            "Continent": "Africa",
            "Country": "Angola",
            "City": "Sumbe",
            "Airport Name": "Sumbe Airport",
            "IATA": "NDD",
            "ICAO": "FNSU",
            "Latitude": -11.1679,
            "Longitude": 13.8475,
            "Timezone": "Africa/Luanda"
        },
        {
            "Continent": "Africa",
            "Country": "Angola",
            "City": "Uige",
            "Airport Name": "Uige Airport",
            "IATA": "UGO",
            "ICAO": "FNUG",
            "Latitude": -7.60307,
            "Longitude": 15.0278,
            "Timezone": "Africa/Luanda"
        },
        {
            "Continent": "Africa",
            "Country": "Angola",
            "City": "Waco Kungo",
            "Airport Name": "Waco Kungo Airport",
            "IATA": "CEO",
            "ICAO": "FNWK",
            "Latitude": -11.4264,
            "Longitude": 15.1014,
            "Timezone": "Africa/Luanda"
        },
        {
            "Continent": "Africa",
            "Country": "Angola",
            "City": "Xangongo",
            "Airport Name": "Xangongo Airport",
            "IATA": "XGN",
            "ICAO": "FNXA",
            "Latitude": -16.7554,
            "Longitude": 14.9653,
            "Timezone": "Africa/Luanda"
        },
        {
            "Continent": "Africa",
            "Country": "Benin",
            "City": "Cotonou",
            "Airport Name": "Cadjehoun Airport",
            "IATA": "COO",
            "ICAO": "DBBB",
            "Latitude": 6.35723,
            "Longitude": 2.38435,
            "Timezone": "Africa/Porto-Novo"
        },
        {
            "Continent": "Africa",
            "Country": "Benin",
            "City": "Djougou",
            "Airport Name": "Djougou Airport",
            "IATA": "DJA",
            "ICAO": "DBBD",
            "Latitude": 9.69208,
            "Longitude": 1.63778,
            "Timezone": "Africa/Porto-Novo"
        },
        {
            "Continent": "Africa",
            "Country": "Benin",
            "City": "Kandi",
            "Airport Name": "Kandi Airport",
            "IATA": "KDC",
            "ICAO": "DBBK",
            "Latitude": 11.133,
            "Longitude": 2.933,
            "Timezone": "Africa/Porto-Novo"
        },
        {
            "Continent": "Africa",
            "Country": "Benin",
            "City": "Natitingou",
            "Airport Name": "Natitingou Airport",
            "IATA": "NAE",
            "ICAO": "DBBN",
            "Latitude": 10.317,
            "Longitude": 1.383,
            "Timezone": "Africa/Porto-Novo"
        },
        {
            "Continent": "Africa",
            "Country": "Benin",
            "City": "Parakou",
            "Airport Name": "Parakou Airport",
            "IATA": "PKO",
            "ICAO": "DBBP",
            "Latitude": 9.35769,
            "Longitude": 2.60968,
            "Timezone": "Africa/Porto-Novo"
        },
        {
            "Continent": "Africa",
            "Country": "Benin",
            "City": "Save",
            "Airport Name": "Save Airport",
            "IATA": "SVF",
            "ICAO": "DBBS",
            "Latitude": 8.01817,
            "Longitude": 2.46458,
            "Timezone": "Africa/Porto-Novo"
        },
        {
            "Continent": "Africa",
            "Country": "Botswana",
            "City": "",
            "Airport Name": "Jwaneng Airport",
            "IATA": "JWA",
            "ICAO": "FBJW",
            "Latitude": -24.6023,
            "Longitude": 24.691,
            "Timezone": "Africa/Gaborone"
        },
        {
            "Continent": "Africa",
            "Country": "Botswana",
            "City": "",
            "Airport Name": "Orapa Airport",
            "IATA": "ORP",
            "ICAO": "FBOR",
            "Latitude": -21.2667,
            "Longitude": 25.3167,
            "Timezone": "Africa/Gaborone"
        },
        {
            "Continent": "Africa",
            "Country": "Botswana",
            "City": "",
            "Airport Name": "Sua Pan Airport",
            "IATA": "SXN",
            "ICAO": "FBSN",
            "Latitude": -20.5534,
            "Longitude": 26.1158,
            "Timezone": "Africa/Gaborone"
        },
        {
            "Continent": "Africa",
            "Country": "Botswana",
            "City": "",
            "Airport Name": "Selebi Phikwe Airport",
            "IATA": "PKW",
            "ICAO": "FBSP",
            "Latitude": -22.0583,
            "Longitude": 27.8288,
            "Timezone": "Africa/Gaborone"
        },
        {
            "Continent": "Africa",
            "Country": "Botswana",
            "City": "Francistown",
            "Airport Name": "Francistown Airport",
            "IATA": "FRW",
            "ICAO": "FBFT",
            "Latitude": -21.1596,
            "Longitude": 27.4745,
            "Timezone": "Africa/Gaborone"
        },
        {
            "Continent": "Africa",
            "Country": "Botswana",
            "City": "Gaborone",
            "Airport Name": "Sir Seretse Khama International Airport",
            "IATA": "GBE",
            "ICAO": "FBSK",
            "Latitude": -24.5552,
            "Longitude": 25.9182,
            "Timezone": "Africa/Gaborone"
        },
        {
            "Continent": "Africa",
            "Country": "Botswana",
            "City": "Ghanzi",
            "Airport Name": "Ghanzi Airport",
            "IATA": "GNZ",
            "ICAO": "FBGZ",
            "Latitude": -21.6925,
            "Longitude": 21.6581,
            "Timezone": "Africa/Gaborone"
        },
        {
            "Continent": "Africa",
            "Country": "Botswana",
            "City": "Kasane",
            "Airport Name": "Kasane Airport",
            "IATA": "BBK",
            "ICAO": "FBKE",
            "Latitude": -17.8329,
            "Longitude": 25.1624,
            "Timezone": "Africa/Gaborone"
        },
        {
            "Continent": "Africa",
            "Country": "Botswana",
            "City": "Khwai River Lodge",
            "Airport Name": "Khwai River Lodge Airport",
            "IATA": "KHW",
            "ICAO": "FBKR",
            "Latitude": -19.15,
            "Longitude": 23.783,
            "Timezone": "Africa/Gaborone"
        },
        {
            "Continent": "Africa",
            "Country": "Botswana",
            "City": "Maun",
            "Airport Name": "Maun Airport",
            "IATA": "MUB",
            "ICAO": "FBMN",
            "Latitude": -19.9726,
            "Longitude": 23.4311,
            "Timezone": "Africa/Gaborone"
        },
        {
            "Continent": "Africa",
            "Country": "Botswana",
            "City": "Savuti",
            "Airport Name": "Savuti Airport",
            "IATA": "SVT",
            "ICAO": "FBSV",
            "Latitude": -18.5206,
            "Longitude": 24.0767,
            "Timezone": "Africa/Gaborone"
        },
        {
            "Continent": "Africa",
            "Country": "Botswana",
            "City": "Shakawe",
            "Airport Name": "Shakawe Airport",
            "IATA": "SWX",
            "ICAO": "FBSW",
            "Latitude": -18.3739,
            "Longitude": 21.8326,
            "Timezone": "Africa/Gaborone"
        },
        {
            "Continent": "Africa",
            "Country": "Botswana",
            "City": "Tshabong",
            "Airport Name": "Tshabong Airport",
            "IATA": "TBY",
            "ICAO": "FBTS",
            "Latitude": -26.0333,
            "Longitude": 22.4,
            "Timezone": "Africa/Gaborone"
        },
        {
            "Continent": "Africa",
            "Country": "Botswana",
            "City": "Tuli Lodge",
            "Airport Name": "Limpopo Valley Airport",
            "IATA": "TLD",
            "ICAO": "FBTL",
            "Latitude": -22.1892,
            "Longitude": 29.1269,
            "Timezone": "Africa/Gaborone"
        },
        {
            "Continent": "Africa",
            "Country": "Burkina Faso",
            "City": "Aribinda",
            "Airport Name": "Aribinda Airport",
            "IATA": "XAR",
            "ICAO": "DFOY",
            "Latitude": 14.217,
            "Longitude": -0.883,
            "Timezone": "Africa/Ouagadougou"
        },
        {
            "Continent": "Africa",
            "Country": "Burkina Faso",
            "City": "Arly",
            "Airport Name": "Arly Airport",
            "IATA": "ARL",
            "ICAO": "DFER",
            "Latitude": 11.597,
            "Longitude": 1.483,
            "Timezone": "Africa/Ouagadougou"
        },
        {
            "Continent": "Africa",
            "Country": "Burkina Faso",
            "City": "Banfora",
            "Airport Name": "Banfora Airport",
            "IATA": "BNR",
            "ICAO": "DFOB",
            "Latitude": 10.683,
            "Longitude": -4.717,
            "Timezone": "Africa/Ouagadougou"
        },
        {
            "Continent": "Africa",
            "Country": "Burkina Faso",
            "City": "Bobo Dioulasso",
            "Airport Name": "Bobo Dioulasso Airport",
            "IATA": "BOY",
            "ICAO": "DFOO",
            "Latitude": 11.1601,
            "Longitude": -4.33097,
            "Timezone": "Africa/Ouagadougou"
        },
        {
            "Continent": "Africa",
            "Country": "Burkina Faso",
            "City": "Bogande",
            "Airport Name": "Bogande Airport",
            "IATA": "XBG",
            "ICAO": "DFEB",
            "Latitude": 12.983,
            "Longitude": -0.167,
            "Timezone": "Africa/Ouagadougou"
        },
        {
            "Continent": "Africa",
            "Country": "Burkina Faso",
            "City": "Boulsa",
            "Airport Name": "Boulsa Airport",
            "IATA": "XBO",
            "ICAO": "DFEA",
            "Latitude": 12.65,
            "Longitude": -0.567,
            "Timezone": "Africa/Ouagadougou"
        },
        {
            "Continent": "Africa",
            "Country": "Burkina Faso",
            "City": "Dedougou",
            "Airport Name": "Dedougou Airport",
            "IATA": "DGU",
            "ICAO": "DFOD",
            "Latitude": 12.459,
            "Longitude": -3.49,
            "Timezone": "Africa/Ouagadougou"
        },
        {
            "Continent": "Africa",
            "Country": "Burkina Faso",
            "City": "Diapaga",
            "Airport Name": "Diapaga Airport",
            "IATA": "DIP",
            "ICAO": "DFED",
            "Latitude": 12.05,
            "Longitude": 1.783,
            "Timezone": "Africa/Ouagadougou"
        },
        {
            "Continent": "Africa",
            "Country": "Burkina Faso",
            "City": "Diebougou",
            "Airport Name": "Diebougou Airport",
            "IATA": "XDE",
            "ICAO": "DFOU",
            "Latitude": 10.95,
            "Longitude": -3.25,
            "Timezone": "Africa/Ouagadougou"
        },
        {
            "Continent": "Africa",
            "Country": "Burkina Faso",
            "City": "Djibo",
            "Airport Name": "Djibo Airport",
            "IATA": "XDJ",
            "ICAO": "DFCJ",
            "Latitude": 14.1,
            "Longitude": -1.633,
            "Timezone": "Africa/Ouagadougou"
        },
        {
            "Continent": "Africa",
            "Country": "Burkina Faso",
            "City": "Dori",
            "Airport Name": "Dori Airport",
            "IATA": "DOR",
            "ICAO": "DFEE",
            "Latitude": 14.033,
            "Longitude": -0.033,
            "Timezone": "Africa/Ouagadougou"
        },
        {
            "Continent": "Africa",
            "Country": "Burkina Faso",
            "City": "Fada N'gourma",
            "Airport Name": "Fada N'gourma Airport",
            "IATA": "FNG",
            "ICAO": "DFEF",
            "Latitude": 12.033,
            "Longitude": 0.35,
            "Timezone": "Africa/Ouagadougou"
        },
        {
            "Continent": "Africa",
            "Country": "Burkina Faso",
            "City": "Gaoua",
            "Airport Name": "Gaoua Airport",
            "IATA": "XGA",
            "ICAO": "DFOG",
            "Latitude": 10.2992,
            "Longitude": -3.25083,
            "Timezone": "Africa/Ouagadougou"
        },
        {
            "Continent": "Africa",
            "Country": "Burkina Faso",
            "City": "Gorom-Gorom",
            "Airport Name": "Gorom-Gorom Airport",
            "IATA": "XGG",
            "ICAO": "DFEG",
            "Latitude": 14.45,
            "Longitude": -0.233,
            "Timezone": "Africa/Ouagadougou"
        },
        {
            "Continent": "Africa",
            "Country": "Burkina Faso",
            "City": "Kantchari",
            "Airport Name": "Kantchari Airport",
            "IATA": "XKA",
            "ICAO": "DFEL",
            "Latitude": 12.467,
            "Longitude": 1.5,
            "Timezone": "Africa/Ouagadougou"
        },
        {
            "Continent": "Africa",
            "Country": "Burkina Faso",
            "City": "Kaya",
            "Airport Name": "Kaya Airport",
            "IATA": "XKY",
            "ICAO": "DFCA",
            "Latitude": 13.067,
            "Longitude": -1.1,
            "Timezone": "Africa/Ouagadougou"
        },
        {
            "Continent": "Africa",
            "Country": "Burkina Faso",
            "City": "Leo",
            "Airport Name": "Leo Airport",
            "IATA": "XLU",
            "ICAO": "DFCL",
            "Latitude": 11.1,
            "Longitude": -2.1,
            "Timezone": "Africa/Ouagadougou"
        },
        {
            "Continent": "Africa",
            "Country": "Burkina Faso",
            "City": "Nouna",
            "Airport Name": "Nouna Airport",
            "IATA": "XNU",
            "ICAO": "DFON",
            "Latitude": 12.75,
            "Longitude": -3.867,
            "Timezone": "Africa/Ouagadougou"
        },
        {
            "Continent": "Africa",
            "Country": "Burkina Faso",
            "City": "Ouagadougou",
            "Airport Name": "Ouagadougou Airport",
            "IATA": "OUA",
            "ICAO": "DFFD",
            "Latitude": 12.3532,
            "Longitude": -1.51242,
            "Timezone": "Africa/Ouagadougou"
        },
        {
            "Continent": "Africa",
            "Country": "Burkina Faso",
            "City": "Ouahigouya",
            "Airport Name": "Ouahigouya Airport",
            "IATA": "OUG",
            "ICAO": "DFCC",
            "Latitude": 13.567,
            "Longitude": -2.417,
            "Timezone": "Africa/Ouagadougou"
        },
        {
            "Continent": "Africa",
            "Country": "Burkina Faso",
            "City": "Pama",
            "Airport Name": "Pama Airport",
            "IATA": "XPA",
            "ICAO": "DFEP",
            "Latitude": 11.25,
            "Longitude": 0.7,
            "Timezone": "Africa/Ouagadougou"
        },
        {
            "Continent": "Africa",
            "Country": "Burkina Faso",
            "City": "Po",
            "Airport Name": "Po Airport",
            "IATA": "PUP",
            "ICAO": "DFCP",
            "Latitude": 11.15,
            "Longitude": -1.15,
            "Timezone": "Africa/Ouagadougou"
        },
        {
            "Continent": "Africa",
            "Country": "Burkina Faso",
            "City": "Sebba",
            "Airport Name": "Sebba Airport",
            "IATA": "XSE",
            "ICAO": "DFES",
            "Latitude": 13.45,
            "Longitude": 0.517,
            "Timezone": "Africa/Ouagadougou"
        },
        {
            "Continent": "Africa",
            "Country": "Burkina Faso",
            "City": "Tambao",
            "Airport Name": "Tambao Airport",
            "IATA": "TMQ",
            "ICAO": "DFEM",
            "Latitude": 14.8,
            "Longitude": 0.05,
            "Timezone": "Africa/Ouagadougou"
        },
        {
            "Continent": "Africa",
            "Country": "Burkina Faso",
            "City": "Tenkodogo",
            "Airport Name": "Tenkodogo Airport",
            "IATA": "TEG",
            "ICAO": "DFET",
            "Latitude": 11.8,
            "Longitude": -0.367,
            "Timezone": "Africa/Ouagadougou"
        },
        {
            "Continent": "Africa",
            "Country": "Burkina Faso",
            "City": "Tougan",
            "Airport Name": "Tougan Airport",
            "IATA": "TUQ",
            "ICAO": "DFOT",
            "Latitude": 13.067,
            "Longitude": -3.067,
            "Timezone": "Africa/Ouagadougou"
        },
        {
            "Continent": "Africa",
            "Country": "Burkina Faso",
            "City": "Zabre",
            "Airport Name": "Zabre Airport",
            "IATA": "XZA",
            "ICAO": "DFEZ",
            "Latitude": 11.167,
            "Longitude": -0.617,
            "Timezone": "Africa/Ouagadougou"
        },
        {
            "Continent": "Africa",
            "Country": "Burundi",
            "City": "Bujumbura",
            "Airport Name": "Bujumbura International Airport",
            "IATA": "BJM",
            "ICAO": "HBBA",
            "Latitude": -3.32402,
            "Longitude": 29.3185,
            "Timezone": "Africa/Bujumbura"
        },
        {
            "Continent": "Africa",
            "Country": "Burundi",
            "City": "Gitega",
            "Airport Name": "Gitega Airport",
            "IATA": "GID",
            "ICAO": "HBBE",
            "Latitude": -3.41721,
            "Longitude": 29.91131,
            "Timezone": "Africa/Bujumbura"
        },
        {
            "Continent": "Africa",
            "Country": "Burundi",
            "City": "Kirundo",
            "Airport Name": "Kirundo Airport",
            "IATA": "KRE",
            "ICAO": "HBBO",
            "Latitude": -2.54477,
            "Longitude": 30.09457,
            "Timezone": "Africa/Bujumbura"
        },
        {
            "Continent": "Africa",
            "Country": "Cabo Verde",
            "City": "Brava Island",
            "Airport Name": "Esperadinha Airport",
            "IATA": "BVR",
            "ICAO": "GVBR",
            "Latitude": 14.86431,
            "Longitude": -24.746,
            "Timezone": "Atlantic/Cape_Verde"
        },
        {
            "Continent": "Africa",
            "Country": "Cabo Verde",
            "City": "Espargos",
            "Airport Name": "Amilcar Cabral International Airport",
            "IATA": "SID",
            "ICAO": "GVAC",
            "Latitude": 16.7414,
            "Longitude": -22.9494,
            "Timezone": "Atlantic/Cape_Verde"
        },
        {
            "Continent": "Africa",
            "Country": "Cabo Verde",
            "City": "Ponta do Sol",
            "Airport Name": "Agostinho Neto Airport",
            "IATA": "NTO",
            "ICAO": "GVAN",
            "Latitude": 17.2028,
            "Longitude": -25.0906,
            "Timezone": "Atlantic/Cape_Verde"
        },
        {
            "Continent": "Africa",
            "Country": "Cabo Verde",
            "City": "Praia",
            "Airport Name": "Praia International Airport",
            "IATA": "RAI",
            "ICAO": "GVNP",
            "Latitude": 14.9245,
            "Longitude": -23.4935,
            "Timezone": "Atlantic/Cape_Verde"
        },
        {
            "Continent": "Africa",
            "Country": "Cabo Verde",
            "City": "Preguica",
            "Airport Name": "Preguica Airport",
            "IATA": "SNE",
            "ICAO": "GVSN",
            "Latitude": 16.5884,
            "Longitude": -24.2847,
            "Timezone": "Atlantic/Cape_Verde"
        },
        {
            "Continent": "Africa",
            "Country": "Cabo Verde",
            "City": "Rabil",
            "Airport Name": "Rabil Airport",
            "IATA": "BVC",
            "ICAO": "GVBA",
            "Latitude": 16.1365,
            "Longitude": -22.8889,
            "Timezone": "Atlantic/Cape_Verde"
        },
        {
            "Continent": "Africa",
            "Country": "Cabo Verde",
            "City": "Sao Filipe",
            "Airport Name": "Sao Filipe Airport",
            "IATA": "SFL",
            "ICAO": "GVSF",
            "Latitude": 14.885,
            "Longitude": -24.48,
            "Timezone": "Atlantic/Cape_Verde"
        },
        {
            "Continent": "Africa",
            "Country": "Cabo Verde",
            "City": "Sao Pedro",
            "Airport Name": "Sao Pedro Airport",
            "IATA": "VXE",
            "ICAO": "GVSV",
            "Latitude": 16.8332,
            "Longitude": -25.0553,
            "Timezone": "Atlantic/Cape_Verde"
        },
        {
            "Continent": "Africa",
            "Country": "Cabo Verde",
            "City": "Vila do Maio",
            "Airport Name": "Maio Airport",
            "IATA": "MMO",
            "ICAO": "GVMA",
            "Latitude": 15.1559,
            "Longitude": -23.2137,
            "Timezone": "Atlantic/Cape_Verde"
        },
        {
            "Continent": "Africa",
            "Country": "Cabo Verde",
            "City": "Vila do Mosteiros",
            "Airport Name": "Mosteiros Airport",
            "IATA": "MTI",
            "ICAO": "GVMT",
            "Latitude": 15.045,
            "Longitude": -24.3392,
            "Timezone": "Atlantic/Cape_Verde"
        },
        {
            "Continent": "Africa",
            "Country": "Cameroon",
            "City": "Bafoussam",
            "Airport Name": "Bafoussam Airport",
            "IATA": "BFX",
            "ICAO": "FKKU",
            "Latitude": 5.53692,
            "Longitude": 10.3546,
            "Timezone": "Africa/Douala"
        },
        {
            "Continent": "Africa",
            "Country": "Cameroon",
            "City": "Bali",
            "Airport Name": "Bali Airport",
            "IATA": "BLC",
            "ICAO": "FKKG",
            "Latitude": 5.89528,
            "Longitude": 10.03389,
            "Timezone": "Africa/Douala"
        },
        {
            "Continent": "Africa",
            "Country": "Cameroon",
            "City": "Bamenda",
            "Airport Name": "Bamenda Airport",
            "IATA": "BPC",
            "ICAO": "FKKV",
            "Latitude": 6.03924,
            "Longitude": 10.1226,
            "Timezone": "Africa/Douala"
        },
        {
            "Continent": "Africa",
            "Country": "Cameroon",
            "City": "Batouri",
            "Airport Name": "Batouri Airport",
            "IATA": "OUR",
            "ICAO": "FKKI",
            "Latitude": 4.475,
            "Longitude": 14.3625,
            "Timezone": "Africa/Douala"
        },
        {
            "Continent": "Africa",
            "Country": "Cameroon",
            "City": "Bertoua",
            "Airport Name": "Bertoua Airport",
            "IATA": "BTA",
            "ICAO": "FKKO",
            "Latitude": 4.54861,
            "Longitude": 13.7261,
            "Timezone": "Africa/Douala"
        },
        {
            "Continent": "Africa",
            "Country": "Cameroon",
            "City": "Douala",
            "Airport Name": "Douala International Airport",
            "IATA": "DLA",
            "ICAO": "FKKD",
            "Latitude": 4.00608,
            "Longitude": 9.71948,
            "Timezone": "Africa/Douala"
        },
        {
            "Continent": "Africa",
            "Country": "Cameroon",
            "City": "Dschang",
            "Airport Name": "Dschang Airport",
            "IATA": "DSC",
            "ICAO": "FKKS",
            "Latitude": 5.45,
            "Longitude": 10.067,
            "Timezone": "Africa/Douala"
        },
        {
            "Continent": "Africa",
            "Country": "Cameroon",
            "City": "Ebolowa",
            "Airport Name": "Ebolowa Airport",
            "IATA": "EBW",
            "ICAO": "FKKW",
            "Latitude": 2.876,
            "Longitude": 11.185,
            "Timezone": "Africa/Douala"
        },
        {
            "Continent": "Africa",
            "Country": "Cameroon",
            "City": "Foumban",
            "Airport Name": "Foumban Nkounja Airport",
            "IATA": "FOM",
            "ICAO": "FKKM",
            "Latitude": 5.63692,
            "Longitude": 10.7508,
            "Timezone": "Africa/Douala"
        },
        {
            "Continent": "Africa",
            "Country": "Cameroon",
            "City": "Garoua",
            "Airport Name": "Garoua International Airport",
            "IATA": "GOU",
            "ICAO": "FKKR",
            "Latitude": 9.33589,
            "Longitude": 13.3701,
            "Timezone": "Africa/Douala"
        },
        {
            "Continent": "Africa",
            "Country": "Cameroon",
            "City": "Kaele",
            "Airport Name": "Kaele Airport",
            "IATA": "KLE",
            "ICAO": "FKKH",
            "Latitude": 10.0925,
            "Longitude": 14.4456,
            "Timezone": "Africa/Douala"
        },
        {
            "Continent": "Africa",
            "Country": "Cameroon",
            "City": "Kribi",
            "Airport Name": "Kribi Airport",
            "IATA": "KBI",
            "ICAO": "FKKB",
            "Latitude": 2.87389,
            "Longitude": 9.97778,
            "Timezone": "Africa/Douala"
        },
        {
            "Continent": "Africa",
            "Country": "Cameroon",
            "City": "Mamfe",
            "Airport Name": "Mamfe Airport",
            "IATA": "MMF",
            "ICAO": "FKKF",
            "Latitude": 5.70417,
            "Longitude": 9.30639,
            "Timezone": "Africa/Douala"
        },
        {
            "Continent": "Africa",
            "Country": "Cameroon",
            "City": "Maroua",
            "Airport Name": "Salak Airport",
            "IATA": "MVR",
            "ICAO": "FKKL",
            "Latitude": 10.4514,
            "Longitude": 14.2574,
            "Timezone": "Africa/Douala"
        },
        {
            "Continent": "Africa",
            "Country": "Cameroon",
            "City": "N'Gaoundere",
            "Airport Name": "N'Gaoundere Airport",
            "IATA": "NGE",
            "ICAO": "FKKN",
            "Latitude": 7.35701,
            "Longitude": 13.5592,
            "Timezone": "Africa/Douala"
        },
        {
            "Continent": "Africa",
            "Country": "Cameroon",
            "City": "Nkongsamba",
            "Airport Name": "Nkongsamba Airport",
            "IATA": "NKS",
            "ICAO": "FKAN",
            "Latitude": 4.95,
            "Longitude": 9.933,
            "Timezone": "Africa/Douala"
        },
        {
            "Continent": "Africa",
            "Country": "Cameroon",
            "City": "Tiko",
            "Airport Name": "Tiko Airport",
            "IATA": "TKC",
            "ICAO": "FKKC",
            "Latitude": 4.08919,
            "Longitude": 9.36053,
            "Timezone": "Africa/Douala"
        },
        {
            "Continent": "Africa",
            "Country": "Cameroon",
            "City": "Yagoua",
            "Airport Name": "Yagoua Airport",
            "IATA": "GXX",
            "ICAO": "FKKJ",
            "Latitude": 10.3561,
            "Longitude": 15.2372,
            "Timezone": "Africa/Douala"
        },
        {
            "Continent": "Africa",
            "Country": "Cameroon",
            "City": "Yaounde",
            "Airport Name": "Yaounde Airport",
            "IATA": "YAO",
            "ICAO": "FKKY",
            "Latitude": 3.83604,
            "Longitude": 11.5235,
            "Timezone": "Africa/Douala"
        },
        {
            "Continent": "Africa",
            "Country": "Cameroon",
            "City": "Yaounde",
            "Airport Name": "Yaounde Nsimalen International Airport",
            "IATA": "NSI",
            "ICAO": "FKYS",
            "Latitude": 3.72256,
            "Longitude": 11.5533,
            "Timezone": "Africa/Douala"
        },
        {
            "Continent": "Africa",
            "Country": "Central African Republic",
            "City": "Bakouma",
            "Airport Name": "Bakouma Airport",
            "IATA": "BMF",
            "ICAO": "FEGM",
            "Latitude": 5.694,
            "Longitude": 22.801,
            "Timezone": "Africa/Bangui"
        },
        {
            "Continent": "Africa",
            "Country": "Central African Republic",
            "City": "Bambari",
            "Airport Name": "Bambari Airport",
            "IATA": "BBY",
            "ICAO": "FEFM",
            "Latitude": 5.84694,
            "Longitude": 20.6475,
            "Timezone": "Africa/Bangui"
        },
        {
            "Continent": "Africa",
            "Country": "Central African Republic",
            "City": "Bangassou",
            "Airport Name": "Bangassou Airport",
            "IATA": "BGU",
            "ICAO": "FEFG",
            "Latitude": 4.785,
            "Longitude": 22.781,
            "Timezone": "Africa/Bangui"
        },
        {
            "Continent": "Africa",
            "Country": "Central African Republic",
            "City": "Bangui",
            "Airport Name": "Bangui M'Poko International Airport",
            "IATA": "BGF",
            "ICAO": "FEFF",
            "Latitude": 4.39848,
            "Longitude": 18.5188,
            "Timezone": "Africa/Bangui"
        },
        {
            "Continent": "Africa",
            "Country": "Central African Republic",
            "City": "Batangafo",
            "Airport Name": "Batangafo Airport",
            "IATA": "BTG",
            "ICAO": "FEGF",
            "Latitude": 7.31411,
            "Longitude": 18.3088,
            "Timezone": "Africa/Bangui"
        },
        {
            "Continent": "Africa",
            "Country": "Central African Republic",
            "City": "Berberati",
            "Airport Name": "Berberati Airport",
            "IATA": "BBT",
            "ICAO": "FEFT",
            "Latitude": 4.22158,
            "Longitude": 15.7864,
            "Timezone": "Africa/Bangui"
        },
        {
            "Continent": "Africa",
            "Country": "Central African Republic",
            "City": "Birao",
            "Airport Name": "Birao Airport",
            "IATA": "IRO",
            "ICAO": "FEFI",
            "Latitude": 10.2364,
            "Longitude": 22.7169,
            "Timezone": "Africa/Bangui"
        },
        {
            "Continent": "Africa",
            "Country": "Central African Republic",
            "City": "Bossangoa",
            "Airport Name": "Bossangoa Airport",
            "IATA": "BSN",
            "ICAO": "FEFS",
            "Latitude": 6.492,
            "Longitude": 17.429,
            "Timezone": "Africa/Bangui"
        },
        {
            "Continent": "Africa",
            "Country": "Central African Republic",
            "City": "Bouar",
            "Airport Name": "Bouar Airport",
            "IATA": "BOP",
            "ICAO": "FEFO",
            "Latitude": 5.958,
            "Longitude": 15.637,
            "Timezone": "Africa/Bangui"
        },
        {
            "Continent": "Africa",
            "Country": "Central African Republic",
            "City": "Bouca",
            "Airport Name": "Bouca Airport",
            "IATA": "BCF",
            "ICAO": "FEGU",
            "Latitude": 6.517,
            "Longitude": 18.267,
            "Timezone": "Africa/Bangui"
        },
        {
            "Continent": "Africa",
            "Country": "Central African Republic",
            "City": "Bozoum",
            "Airport Name": "Bozoum Airport",
            "IATA": "BOZ",
            "ICAO": "FEGZ",
            "Latitude": 6.34417,
            "Longitude": 16.3219,
            "Timezone": "Africa/Bangui"
        },
        {
            "Continent": "Africa",
            "Country": "Central African Republic",
            "City": "Bria",
            "Airport Name": "Bria Airport",
            "IATA": "BIV",
            "ICAO": "FEFR",
            "Latitude": 6.52778,
            "Longitude": 21.9894,
            "Timezone": "Africa/Bangui"
        },
        {
            "Continent": "Africa",
            "Country": "Central African Republic",
            "City": "Carnot",
            "Airport Name": "Carnot Airport",
            "IATA": "CRF",
            "ICAO": "FEFC",
            "Latitude": 4.937,
            "Longitude": 15.894,
            "Timezone": "Africa/Bangui"
        },
        {
            "Continent": "Africa",
            "Country": "Central African Republic",
            "City": "Mboki",
            "Airport Name": "M'Boki Airport",
            "IATA": "MKI",
            "ICAO": "FEGE",
            "Latitude": 5.33301,
            "Longitude": 25.9319,
            "Timezone": "Africa/Bangui"
        },
        {
            "Continent": "Africa",
            "Country": "Central African Republic",
            "City": "Melle",
            "Airport Name": "Gordil Airport",
            "IATA": "GDI",
            "ICAO": "FEGL",
            "Latitude": 9.583,
            "Longitude": 21.733,
            "Timezone": "Africa/Bangui"
        },
        {
            "Continent": "Africa",
            "Country": "Central African Republic",
            "City": "N'Dele",
            "Airport Name": "N'Dele Airport",
            "IATA": "NDL",
            "ICAO": "FEFN",
            "Latitude": 8.42721,
            "Longitude": 20.63516,
            "Timezone": "Africa/Bangui"
        },
        {
            "Continent": "Africa",
            "Country": "Central African Republic",
            "City": "Ouadda",
            "Airport Name": "Ouadda Airport",
            "IATA": "ODA",
            "ICAO": "FEFW",
            "Latitude": 8.01056,
            "Longitude": 22.3986,
            "Timezone": "Africa/Bangui"
        },
        {
            "Continent": "Africa",
            "Country": "Central African Republic",
            "City": "Ouanda Djalle",
            "Airport Name": "Ouanda Djalle Airport",
            "IATA": "ODJ",
            "ICAO": "FEGO",
            "Latitude": 8.9,
            "Longitude": 22.783,
            "Timezone": "Africa/Bangui"
        },
        {
            "Continent": "Africa",
            "Country": "Central African Republic",
            "City": "Rafai",
            "Airport Name": "Rafai Airport",
            "IATA": "RFA",
            "ICAO": "FEGR",
            "Latitude": 4.98861,
            "Longitude": 23.9278,
            "Timezone": "Africa/Bangui"
        },
        {
            "Continent": "Africa",
            "Country": "Central African Republic",
            "City": "Yalinga",
            "Airport Name": "Yalinga Airport",
            "IATA": "AIG",
            "ICAO": "FEFY",
            "Latitude": 6.52,
            "Longitude": 23.26,
            "Timezone": "Africa/Bangui"
        },
        {
            "Continent": "Africa",
            "Country": "Central African Republic",
            "City": "Zemio",
            "Airport Name": "Zemio Airport",
            "IATA": "IMO",
            "ICAO": "FEFZ",
            "Latitude": 5.05,
            "Longitude": 25.15,
            "Timezone": "Africa/Bangui"
        },
        {
            "Continent": "Africa",
            "Country": "Chad",
            "City": "",
            "Airport Name": "Abeche Airport",
            "IATA": "AEH",
            "ICAO": "FTTC",
            "Latitude": 13.847,
            "Longitude": 20.8443,
            "Timezone": "Africa/Ndjamena"
        },
        {
            "Continent": "Africa",
            "Country": "Chad",
            "City": "",
            "Airport Name": "Moundou Airport",
            "IATA": "MQQ",
            "ICAO": "FTTD",
            "Latitude": 8.62441,
            "Longitude": 16.0714,
            "Timezone": "Africa/Ndjamena"
        },
        {
            "Continent": "Africa",
            "Country": "Chad",
            "City": "",
            "Airport Name": "Faya Largeau Airport",
            "IATA": "FYT",
            "ICAO": "FTTY",
            "Latitude": 17.9171,
            "Longitude": 19.1111,
            "Timezone": "Africa/Ndjamena"
        },
        {
            "Continent": "Africa",
            "Country": "Chad",
            "City": "Am Timan",
            "Airport Name": "Am Timan Airport",
            "IATA": "AMC",
            "ICAO": "FTTN",
            "Latitude": 11.034,
            "Longitude": 20.274,
            "Timezone": "Africa/Ndjamena"
        },
        {
            "Continent": "Africa",
            "Country": "Chad",
            "City": "Ati",
            "Airport Name": "Ati Airport",
            "IATA": "ATV",
            "ICAO": "FTTI",
            "Latitude": 13.2389,
            "Longitude": 18.3133,
            "Timezone": "Africa/Ndjamena"
        },
        {
            "Continent": "Africa",
            "Country": "Chad",
            "City": "Bokoro",
            "Airport Name": "Bokoro Airport",
            "IATA": "BKR",
            "ICAO": "FTTK",
            "Latitude": 12.383,
            "Longitude": 17.067,
            "Timezone": "Africa/Ndjamena"
        },
        {
            "Continent": "Africa",
            "Country": "Chad",
            "City": "Bol",
            "Airport Name": "Bol Airport",
            "IATA": "OTC",
            "ICAO": "FTTL",
            "Latitude": 13.4433,
            "Longitude": 14.7394,
            "Timezone": "Africa/Ndjamena"
        },
        {
            "Continent": "Africa",
            "Country": "Chad",
            "City": "Bongor",
            "Airport Name": "Bongor Airport",
            "IATA": "OGR",
            "ICAO": "FTTB",
            "Latitude": 10.2881,
            "Longitude": 15.3811,
            "Timezone": "Africa/Ndjamena"
        },
        {
            "Continent": "Africa",
            "Country": "Chad",
            "City": "Bousso",
            "Airport Name": "Bousso Airport",
            "IATA": "OUT",
            "ICAO": "FTTS",
            "Latitude": 10.483,
            "Longitude": 16.717,
            "Timezone": "Africa/Ndjamena"
        },
        {
            "Continent": "Africa",
            "Country": "Chad",
            "City": "Lai",
            "Airport Name": "Lai Airport",
            "IATA": "LTC",
            "ICAO": "FTTH",
            "Latitude": 9.4,
            "Longitude": 16.3,
            "Timezone": "Africa/Ndjamena"
        },
        {
            "Continent": "Africa",
            "Country": "Chad",
            "City": "Mao",
            "Airport Name": "Mao Airport",
            "IATA": "AMO",
            "ICAO": "FTTU",
            "Latitude": 14.1456,
            "Longitude": 15.3144,
            "Timezone": "Africa/Ndjamena"
        },
        {
            "Continent": "Africa",
            "Country": "Chad",
            "City": "Mongo",
            "Airport Name": "Mongo Airport",
            "IATA": "MVO",
            "ICAO": "FTTM",
            "Latitude": 12.167,
            "Longitude": 18.675,
            "Timezone": "Africa/Ndjamena"
        },
        {
            "Continent": "Africa",
            "Country": "Chad",
            "City": "N'Djamena",
            "Airport Name": "N'Djamena International Airport",
            "IATA": "NDJ",
            "ICAO": "FTTJ",
            "Latitude": 12.1337,
            "Longitude": 15.034,
            "Timezone": "Africa/Ndjamena"
        },
        {
            "Continent": "Africa",
            "Country": "Chad",
            "City": "Pala",
            "Airport Name": "Pala Airport",
            "IATA": "PLF",
            "ICAO": "FTTP",
            "Latitude": 9.37806,
            "Longitude": 14.925,
            "Timezone": "Africa/Ndjamena"
        },
        {
            "Continent": "Africa",
            "Country": "Chad",
            "City": "Sarh",
            "Airport Name": "Sarh Airport",
            "IATA": "SRH",
            "ICAO": "FTTA",
            "Latitude": 9.14444,
            "Longitude": 18.3744,
            "Timezone": "Africa/Ndjamena"
        },
        {
            "Continent": "Africa",
            "Country": "Comoros",
            "City": "",
            "Airport Name": "Moheli Bandar Es Eslam Airport",
            "IATA": "NWA",
            "ICAO": "FMCI",
            "Latitude": -12.2981,
            "Longitude": 43.7664,
            "Timezone": "Indian/Comoro"
        },
        {
            "Continent": "Africa",
            "Country": "Comoros",
            "City": "Moroni",
            "Airport Name": "Prince Said Ibrahim International Airport",
            "IATA": "HAH",
            "ICAO": "FMCH",
            "Latitude": -11.5337,
            "Longitude": 43.2719,
            "Timezone": "Indian/Comoro"
        },
        {
            "Continent": "Africa",
            "Country": "Comoros",
            "City": "Moroni",
            "Airport Name": "Iconi Airport",
            "IATA": "YVA",
            "ICAO": "FMCN",
            "Latitude": -11.7108,
            "Longitude": 43.2439,
            "Timezone": "Indian/Comoro"
        },
        {
            "Continent": "Africa",
            "Country": "Comoros",
            "City": "Ouani",
            "Airport Name": "Ouani Airport",
            "IATA": "AJN",
            "ICAO": "FMCV",
            "Latitude": -12.1317,
            "Longitude": 44.4303,
            "Timezone": "Indian/Comoro"
        },
        {
            "Continent": "Africa",
            "Country": "Congo",
            "City": "",
            "Airport Name": "Ouesso Airport",
            "IATA": "OUE",
            "ICAO": "FCOU",
            "Latitude": 1.61599,
            "Longitude": 16.0379,
            "Timezone": "Africa/Brazzaville"
        },
        {
            "Continent": "Africa",
            "Country": "Congo",
            "City": "Betou",
            "Airport Name": "Betou Airport",
            "IATA": "BTB",
            "ICAO": "FCOT",
            "Latitude": 3.05,
            "Longitude": 18.5,
            "Timezone": "Africa/Brazzaville"
        },
        {
            "Continent": "Africa",
            "Country": "Congo",
            "City": "Boundji",
            "Airport Name": "Boundji Airport",
            "IATA": "BOE",
            "ICAO": "FCOB",
            "Latitude": -1.033,
            "Longitude": 15.383,
            "Timezone": "Africa/Brazzaville"
        },
        {
            "Continent": "Africa",
            "Country": "Congo",
            "City": "Brazzaville",
            "Airport Name": "Maya-Maya Airport",
            "IATA": "BZV",
            "ICAO": "FCBB",
            "Latitude": -4.2517,
            "Longitude": 15.253,
            "Timezone": "Africa/Brazzaville"
        },
        {
            "Continent": "Africa",
            "Country": "Congo",
            "City": "Djambala",
            "Airport Name": "Djambala Airport",
            "IATA": "DJM",
            "ICAO": "FCBD",
            "Latitude": -2.533,
            "Longitude": 14.75,
            "Timezone": "Africa/Brazzaville"
        },
        {
            "Continent": "Africa",
            "Country": "Congo",
            "City": "Dolisie",
            "Airport Name": "Ngot Nzoungou Airport",
            "IATA": "DIS",
            "ICAO": "FCPD",
            "Latitude": -4.20635,
            "Longitude": 12.6599,
            "Timezone": "Africa/Brazzaville"
        },
        {
            "Continent": "Africa",
            "Country": "Congo",
            "City": "Ewo",
            "Airport Name": "Ewo Airport",
            "IATA": "EWO",
            "ICAO": "FCOE",
            "Latitude": -0.883,
            "Longitude": 14.8,
            "Timezone": "Africa/Brazzaville"
        },
        {
            "Continent": "Africa",
            "Country": "Congo",
            "City": "Gamboma",
            "Airport Name": "Gamboma Airport",
            "IATA": "GMM",
            "ICAO": "FCOG",
            "Latitude": -1.8294,
            "Longitude": 15.88524,
            "Timezone": "Africa/Brazzaville"
        },
        {
            "Continent": "Africa",
            "Country": "Congo",
            "City": "Impfondo",
            "Airport Name": "Impfondo Airport",
            "IATA": "ION",
            "ICAO": "FCOI",
            "Latitude": 1.617,
            "Longitude": 18.067,
            "Timezone": "Africa/Brazzaville"
        },
        {
            "Continent": "Africa",
            "Country": "Congo",
            "City": "Kelle",
            "Airport Name": "Kelle Airport",
            "IATA": "KEE",
            "ICAO": "FCOK",
            "Latitude": -0.083,
            "Longitude": 14.533,
            "Timezone": "Africa/Brazzaville"
        },
        {
            "Continent": "Africa",
            "Country": "Congo",
            "City": "Kindamba",
            "Airport Name": "Kindamba Airport",
            "IATA": "KNJ",
            "ICAO": "FCBK",
            "Latitude": -3.95,
            "Longitude": 14.517,
            "Timezone": "Africa/Brazzaville"
        },
        {
            "Continent": "Africa",
            "Country": "Congo",
            "City": "Lague",
            "Airport Name": "Lague Airport",
            "IATA": "LCO",
            "ICAO": "FCBL",
            "Latitude": -2.45,
            "Longitude": 14.533,
            "Timezone": "Africa/Brazzaville"
        },
        {
            "Continent": "Africa",
            "Country": "Congo",
            "City": "Makabana",
            "Airport Name": "Makabana Airport",
            "IATA": "KMK",
            "ICAO": "FCPA",
            "Latitude": -3.483,
            "Longitude": 12.617,
            "Timezone": "Africa/Brazzaville"
        },
        {
            "Continent": "Africa",
            "Country": "Congo",
            "City": "Makoua",
            "Airport Name": "Makoua Airport",
            "IATA": "MKJ",
            "ICAO": "FCOM",
            "Latitude": -0.017,
            "Longitude": 15.583,
            "Timezone": "Africa/Brazzaville"
        },
        {
            "Continent": "Africa",
            "Country": "Congo",
            "City": "Mossendjo",
            "Airport Name": "Mossendjo Airport",
            "IATA": "MSX",
            "ICAO": "FCMM",
            "Latitude": -2.95,
            "Longitude": 12.7,
            "Timezone": "Africa/Brazzaville"
        },
        {
            "Continent": "Africa",
            "Country": "Congo",
            "City": "Mouyondzi",
            "Airport Name": "Mouyondzi Airport",
            "IATA": "MUY",
            "ICAO": "FCBM",
            "Latitude": -4.01487,
            "Longitude": 13.96611,
            "Timezone": "Africa/Brazzaville"
        },
        {
            "Continent": "Africa",
            "Country": "Congo",
            "City": "Nkayi",
            "Airport Name": "Yokangassi Airport",
            "IATA": "NKY",
            "ICAO": "FCBY",
            "Latitude": -4.217,
            "Longitude": 13.283,
            "Timezone": "Africa/Brazzaville"
        },
        {
            "Continent": "Africa",
            "Country": "Congo",
            "City": "Owando",
            "Airport Name": "Owando Airport",
            "IATA": "FTX",
            "ICAO": "FCOO",
            "Latitude": -0.53135,
            "Longitude": 15.9501,
            "Timezone": "Africa/Brazzaville"
        },
        {
            "Continent": "Africa",
            "Country": "Congo",
            "City": "Pointe Noire",
            "Airport Name": "Pointe Noire Airport",
            "IATA": "PNR",
            "ICAO": "FCPP",
            "Latitude": -4.81603,
            "Longitude": 11.8866,
            "Timezone": "Africa/Brazzaville"
        },
        {
            "Continent": "Africa",
            "Country": "Congo",
            "City": "Sibiti",
            "Airport Name": "Sibiti Airport",
            "IATA": "SIB",
            "ICAO": "FCBS",
            "Latitude": -3.683,
            "Longitude": 13.35,
            "Timezone": "Africa/Brazzaville"
        },
        {
            "Continent": "Africa",
            "Country": "Congo",
            "City": "Souanke",
            "Airport Name": "Souanke Airport",
            "IATA": "SOE",
            "ICAO": "FCOS",
            "Latitude": 2.067,
            "Longitude": 14.133,
            "Timezone": "Africa/Brazzaville"
        },
        {
            "Continent": "Africa",
            "Country": "Congo",
            "City": "Zanaga",
            "Airport Name": "Zanaga Airport",
            "IATA": "ANJ",
            "ICAO": "FCBZ",
            "Latitude": -2.85,
            "Longitude": 13.817,
            "Timezone": "Africa/Brazzaville"
        },
        {
            "Continent": "Africa",
            "Country": "Congo, The Democratic Republic of the",
            "City": "",
            "Airport Name": "Ndolo Airport",
            "IATA": "NLO",
            "ICAO": "FZAB",
            "Latitude": -4.32666,
            "Longitude": 15.3275,
            "Timezone": "Africa/Kinshasa"
        },
        {
            "Continent": "Africa",
            "Country": "Congo, The Democratic Republic of the",
            "City": "",
            "Airport Name": "Muanda Airport",
            "IATA": "MNB",
            "ICAO": "FZAG",
            "Latitude": -5.93086,
            "Longitude": 12.3518,
            "Timezone": "Africa/Kinshasa"
        },
        {
            "Continent": "Africa",
            "Country": "Congo, The Democratic Republic of the",
            "City": "",
            "Airport Name": "Bandundu Airport",
            "IATA": "FDU",
            "ICAO": "FZBO",
            "Latitude": -3.31132,
            "Longitude": 17.3817,
            "Timezone": "Africa/Kinshasa"
        },
        {
            "Continent": "Africa",
            "Country": "Congo, The Democratic Republic of the",
            "City": "",
            "Airport Name": "Kikwit Airport",
            "IATA": "KKW",
            "ICAO": "FZCA",
            "Latitude": -5.03577,
            "Longitude": 18.7856,
            "Timezone": "Africa/Kinshasa"
        },
        {
            "Continent": "Africa",
            "Country": "Congo, The Democratic Republic of the",
            "City": "",
            "Airport Name": "Gbadolite Airport",
            "IATA": "BDT",
            "ICAO": "FZFD",
            "Latitude": 4.25321,
            "Longitude": 20.9753,
            "Timezone": "Africa/Kinshasa"
        },
        {
            "Continent": "Africa",
            "Country": "Congo, The Democratic Republic of the",
            "City": "",
            "Airport Name": "Kotakoli Airport",
            "IATA": "KLI",
            "ICAO": "FZFP",
            "Latitude": 4.15764,
            "Longitude": 21.6509,
            "Timezone": "Africa/Kinshasa"
        },
        {
            "Continent": "Africa",
            "Country": "Congo, The Democratic Republic of the",
            "City": "",
            "Airport Name": "Matari Airport",
            "IATA": "IRP",
            "ICAO": "FZJH",
            "Latitude": 2.82761,
            "Longitude": 27.5883,
            "Timezone": "Africa/Lubumbashi"
        },
        {
            "Continent": "Africa",
            "Country": "Congo, The Democratic Republic of the",
            "City": "",
            "Airport Name": "Bunia Airport",
            "IATA": "BUX",
            "ICAO": "FZKA",
            "Latitude": 1.56572,
            "Longitude": 30.2208,
            "Timezone": "Africa/Lubumbashi"
        },
        {
            "Continent": "Africa",
            "Country": "Congo, The Democratic Republic of the",
            "City": "",
            "Airport Name": "Buta Zega Airport",
            "IATA": "BZU",
            "ICAO": "FZKJ",
            "Latitude": 2.81835,
            "Longitude": 24.7937,
            "Timezone": "Africa/Lubumbashi"
        },
        {
            "Continent": "Africa",
            "Country": "Congo, The Democratic Republic of the",
            "City": "",
            "Airport Name": "Bukavu Kavumu Airport",
            "IATA": "BKY",
            "ICAO": "FZMA",
            "Latitude": -2.30898,
            "Longitude": 28.8088,
            "Timezone": "Africa/Lubumbashi"
        },
        {
            "Continent": "Africa",
            "Country": "Congo, The Democratic Republic of the",
            "City": "",
            "Airport Name": "Kolwezi Airport",
            "IATA": "KWZ",
            "ICAO": "FZQM",
            "Latitude": -10.7659,
            "Longitude": 25.5057,
            "Timezone": "Africa/Lubumbashi"
        },
        {
            "Continent": "Africa",
            "Country": "Congo, The Democratic Republic of the",
            "City": "",
            "Airport Name": "Kalemie Airport",
            "IATA": "FMI",
            "ICAO": "FZRF",
            "Latitude": -5.87556,
            "Longitude": 29.25,
            "Timezone": "Africa/Lubumbashi"
        },
        {
            "Continent": "Africa",
            "Country": "Congo, The Democratic Republic of the",
            "City": "Basankusu",
            "Airport Name": "Basankusu Airport",
            "IATA": "BSU",
            "ICAO": "FZEN",
            "Latitude": 1.22472,
            "Longitude": 19.7889,
            "Timezone": "Africa/Kinshasa"
        },
        {
            "Continent": "Africa",
            "Country": "Congo, The Democratic Republic of the",
            "City": "Basongo",
            "Airport Name": "Basongo Airport",
            "IATA": "BAN",
            "ICAO": "FZVR",
            "Latitude": -4.317,
            "Longitude": 20.433,
            "Timezone": "Africa/Lubumbashi"
        },
        {
            "Continent": "Africa",
            "Country": "Congo, The Democratic Republic of the",
            "City": "Beni",
            "Airport Name": "Beni Airport",
            "IATA": "BNC",
            "ICAO": "FZNP",
            "Latitude": 0.575,
            "Longitude": 29.4739,
            "Timezone": "Africa/Lubumbashi"
        },
        {
            "Continent": "Africa",
            "Country": "Congo, The Democratic Republic of the",
            "City": "Boende",
            "Airport Name": "Boende Airport",
            "IATA": "BNB",
            "ICAO": "FZGN",
            "Latitude": -0.217,
            "Longitude": 20.85,
            "Timezone": "Africa/Kinshasa"
        },
        {
            "Continent": "Africa",
            "Country": "Congo, The Democratic Republic of the",
            "City": "Boma",
            "Airport Name": "Boma Airport",
            "IATA": "BOA",
            "ICAO": "FZAJ",
            "Latitude": -5.854,
            "Longitude": 13.064,
            "Timezone": "Africa/Kinshasa"
        },
        {
            "Continent": "Africa",
            "Country": "Congo, The Democratic Republic of the",
            "City": "Bumbar",
            "Airport Name": "Bumbar Airport",
            "IATA": "BMB",
            "ICAO": "FZFU",
            "Latitude": 2.18278,
            "Longitude": 22.4817,
            "Timezone": "Africa/Kinshasa"
        },
        {
            "Continent": "Africa",
            "Country": "Congo, The Democratic Republic of the",
            "City": "Butembo",
            "Airport Name": "Rughenda Airfield",
            "IATA": "RUE",
            "ICAO": "FZMB",
            "Latitude": 0.11714,
            "Longitude": 29.31299,
            "Timezone": "Africa/Lubumbashi"
        },
        {
            "Continent": "Africa",
            "Country": "Congo, The Democratic Republic of the",
            "City": "Gandajika",
            "Airport Name": "Gandajika Airport",
            "IATA": "GDJ",
            "ICAO": "FZWC",
            "Latitude": -6.733,
            "Longitude": 23.95,
            "Timezone": "Africa/Lubumbashi"
        },
        {
            "Continent": "Africa",
            "Country": "Congo, The Democratic Republic of the",
            "City": "Gemena",
            "Airport Name": "Gemena Airport",
            "IATA": "GMA",
            "ICAO": "FZFK",
            "Latitude": 3.23537,
            "Longitude": 19.7713,
            "Timezone": "Africa/Kinshasa"
        },
        {
            "Continent": "Africa",
            "Country": "Congo, The Democratic Republic of the",
            "City": "Goma",
            "Airport Name": "Goma International Airport",
            "IATA": "GOM",
            "ICAO": "FZNA",
            "Latitude": -1.67081,
            "Longitude": 29.2385,
            "Timezone": "Africa/Kigali"
        },
        {
            "Continent": "Africa",
            "Country": "Congo, The Democratic Republic of the",
            "City": "Idiofa",
            "Airport Name": "Idiofa Airport",
            "IATA": "IDF",
            "ICAO": "FZCB",
            "Latitude": -5.0,
            "Longitude": 19.6,
            "Timezone": "Africa/Kinshasa"
        },
        {
            "Continent": "Africa",
            "Country": "Congo, The Democratic Republic of the",
            "City": "Ikela",
            "Airport Name": "Ikela Airport",
            "IATA": "IKL",
            "ICAO": "FZGV",
            "Latitude": -1.2,
            "Longitude": 23.283,
            "Timezone": "Africa/Kinshasa"
        },
        {
            "Continent": "Africa",
            "Country": "Congo, The Democratic Republic of the",
            "City": "Ilebo",
            "Airport Name": "Ilebo Airport",
            "IATA": "PFR",
            "ICAO": "FZVS",
            "Latitude": -4.333,
            "Longitude": 20.583,
            "Timezone": "Africa/Lubumbashi"
        },
        {
            "Continent": "Africa",
            "Country": "Congo, The Democratic Republic of the",
            "City": "Inongo",
            "Airport Name": "Inongo Airport",
            "IATA": "INO",
            "ICAO": "FZBA",
            "Latitude": -1.94722,
            "Longitude": 18.2858,
            "Timezone": "Africa/Kinshasa"
        },
        {
            "Continent": "Africa",
            "Country": "Congo, The Democratic Republic of the",
            "City": "Kabalo",
            "Airport Name": "Kabalo Airport",
            "IATA": "KBO",
            "ICAO": "FZRM",
            "Latitude": -6.083,
            "Longitude": 26.917,
            "Timezone": "Africa/Lubumbashi"
        },
        {
            "Continent": "Africa",
            "Country": "Congo, The Democratic Republic of the",
            "City": "Kabinda",
            "Airport Name": "Tunta Airport",
            "IATA": "KBN",
            "ICAO": "FZWT",
            "Latitude": -6.133,
            "Longitude": 24.483,
            "Timezone": "Africa/Lubumbashi"
        },
        {
            "Continent": "Africa",
            "Country": "Congo, The Democratic Republic of the",
            "City": "Kalima",
            "Airport Name": "Kinkungwa Airport",
            "IATA": "KLY",
            "ICAO": "FZOD",
            "Latitude": -2.578,
            "Longitude": 26.734,
            "Timezone": "Africa/Lubumbashi"
        },
        {
            "Continent": "Africa",
            "Country": "Congo, The Democratic Republic of the",
            "City": "Kamina",
            "Airport Name": "Kamina / Ville Airport",
            "IATA": "KMN",
            "ICAO": "FZSB",
            "Latitude": -8.72861,
            "Longitude": 24.9914,
            "Timezone": "Africa/Lubumbashi"
        },
        {
            "Continent": "Africa",
            "Country": "Congo, The Democratic Republic of the",
            "City": "Kananga",
            "Airport Name": "Kananga Airport",
            "IATA": "KGA",
            "ICAO": "FZUA",
            "Latitude": -5.90005,
            "Longitude": 22.4692,
            "Timezone": "Africa/Lubumbashi"
        },
        {
            "Continent": "Africa",
            "Country": "Congo, The Democratic Republic of the",
            "City": "Kaniama",
            "Airport Name": "Kaniama Airport",
            "IATA": "KNM",
            "ICAO": "FZTK",
            "Latitude": -7.583,
            "Longitude": 24.15,
            "Timezone": "Africa/Lubumbashi"
        },
        {
            "Continent": "Africa",
            "Country": "Congo, The Democratic Republic of the",
            "City": "Kapanga",
            "Airport Name": "Kapanga Airport",
            "IATA": "KAP",
            "ICAO": "FZSK",
            "Latitude": -8.35,
            "Longitude": 22.583,
            "Timezone": "Africa/Lubumbashi"
        },
        {
            "Continent": "Africa",
            "Country": "Congo, The Democratic Republic of the",
            "City": "Kasenga",
            "Airport Name": "Kasenga Airport",
            "IATA": "KEC",
            "ICAO": "FZQG",
            "Latitude": -10.35,
            "Longitude": 28.633,
            "Timezone": "Africa/Lusaka"
        },
        {
            "Continent": "Africa",
            "Country": "Congo, The Democratic Republic of the",
            "City": "Kasongo",
            "Airport Name": "Kasongo Airport",
            "IATA": "KGN",
            "ICAO": "FZOK",
            "Latitude": -4.533,
            "Longitude": 26.617,
            "Timezone": "Africa/Lubumbashi"
        },
        {
            "Continent": "Africa",
            "Country": "Congo, The Democratic Republic of the",
            "City": "Kindu",
            "Airport Name": "Kindu Airport",
            "IATA": "KND",
            "ICAO": "FZOA",
            "Latitude": -2.91918,
            "Longitude": 25.9154,
            "Timezone": "Africa/Lubumbashi"
        },
        {
            "Continent": "Africa",
            "Country": "Congo, The Democratic Republic of the",
            "City": "Kinshasa",
            "Airport Name": "Ndjili International Airport",
            "IATA": "FIH",
            "ICAO": "FZAA",
            "Latitude": -4.38575,
            "Longitude": 15.4446,
            "Timezone": "Africa/Kinshasa"
        },
        {
            "Continent": "Africa",
            "Country": "Congo, The Democratic Republic of the",
            "City": "Kiri",
            "Airport Name": "Basango Mboliasa Airport",
            "IATA": "KRZ",
            "ICAO": "FZBT",
            "Latitude": -1.435,
            "Longitude": 19.024,
            "Timezone": "Africa/Kinshasa"
        },
        {
            "Continent": "Africa",
            "Country": "Congo, The Democratic Republic of the",
            "City": "Kisangani",
            "Airport Name": "Bangoka International Airport",
            "IATA": "FKI",
            "ICAO": "FZIC",
            "Latitude": 0.48164,
            "Longitude": 25.338,
            "Timezone": "Africa/Lubumbashi"
        },
        {
            "Continent": "Africa",
            "Country": "Congo, The Democratic Republic of the",
            "City": "Kongolo",
            "Airport Name": "Kongolo Airport",
            "IATA": "KOO",
            "ICAO": "FZRQ",
            "Latitude": -5.39444,
            "Longitude": 26.99,
            "Timezone": "Africa/Lubumbashi"
        },
        {
            "Continent": "Africa",
            "Country": "Congo, The Democratic Republic of the",
            "City": "Libenge",
            "Airport Name": "Libenge Airport",
            "IATA": "LIE",
            "ICAO": "FZFA",
            "Latitude": 3.633,
            "Longitude": 18.633,
            "Timezone": "Africa/Kinshasa"
        },
        {
            "Continent": "Africa",
            "Country": "Congo, The Democratic Republic of the",
            "City": "Lisala",
            "Airport Name": "Lisala Airport",
            "IATA": "LIQ",
            "ICAO": "FZGA",
            "Latitude": 2.170984,
            "Longitude": 21.497129,
            "Timezone": "Africa/Lubumbashi"
        },
        {
            "Continent": "Africa",
            "Country": "Congo, The Democratic Republic of the",
            "City": "Lodja",
            "Airport Name": "Lodja Airport",
            "IATA": "LJA",
            "ICAO": "FZVA",
            "Latitude": -3.417,
            "Longitude": 23.45,
            "Timezone": "Africa/Lubumbashi"
        },
        {
            "Continent": "Africa",
            "Country": "Congo, The Democratic Republic of the",
            "City": "Lubumbashi",
            "Airport Name": "Lubumbashi International Airport",
            "IATA": "FBM",
            "ICAO": "FZQA",
            "Latitude": -11.5913,
            "Longitude": 27.5309,
            "Timezone": "Africa/Lubumbashi"
        },
        {
            "Continent": "Africa",
            "Country": "Congo, The Democratic Republic of the",
            "City": "Luiza",
            "Airport Name": "Luiza Airport",
            "IATA": "LZA",
            "ICAO": "FZUG",
            "Latitude": -7.183,
            "Longitude": 22.4,
            "Timezone": "Africa/Lubumbashi"
        },
        {
            "Continent": "Africa",
            "Country": "Congo, The Democratic Republic of the",
            "City": "Luozi",
            "Airport Name": "Luozi Airport",
            "IATA": "LZI",
            "ICAO": "FZAL",
            "Latitude": -4.95,
            "Longitude": 14.133,
            "Timezone": "Africa/Kinshasa"
        },
        {
            "Continent": "Africa",
            "Country": "Congo, The Democratic Republic of the",
            "City": "Lusambo",
            "Airport Name": "Lusambo Airport",
            "IATA": "LBO",
            "ICAO": "FZVI",
            "Latitude": -4.96167,
            "Longitude": 23.3783,
            "Timezone": "Africa/Lubumbashi"
        },
        {
            "Continent": "Africa",
            "Country": "Congo, The Democratic Republic of the",
            "City": "Lusanga",
            "Airport Name": "Lusanga Airport",
            "IATA": "LUS",
            "ICAO": "FZCE",
            "Latitude": -4.8,
            "Longitude": 18.717,
            "Timezone": "Africa/Kinshasa"
        },
        {
            "Continent": "Africa",
            "Country": "Congo, The Democratic Republic of the",
            "City": "Manono",
            "Airport Name": "Manono Airport",
            "IATA": "MNO",
            "ICAO": "FZRA",
            "Latitude": -7.28889,
            "Longitude": 27.3944,
            "Timezone": "Africa/Lubumbashi"
        },
        {
            "Continent": "Africa",
            "Country": "Congo, The Democratic Republic of the",
            "City": "Masi Manimba",
            "Airport Name": "Masi Manimba Airport",
            "IATA": "MSM",
            "ICAO": "FZCV",
            "Latitude": -4.783,
            "Longitude": 17.85,
            "Timezone": "Africa/Kinshasa"
        },
        {
            "Continent": "Africa",
            "Country": "Congo, The Democratic Republic of the",
            "City": "Matadi",
            "Airport Name": "Tshimpi Airport",
            "IATA": "MAT",
            "ICAO": "FZAM",
            "Latitude": -5.79961,
            "Longitude": 13.4404,
            "Timezone": "Africa/Kinshasa"
        },
        {
            "Continent": "Africa",
            "Country": "Congo, The Democratic Republic of the",
            "City": "Mbandaka",
            "Airport Name": "Mbandaka Airport",
            "IATA": "MDK",
            "ICAO": "FZEA",
            "Latitude": 0.0226,
            "Longitude": 18.2887,
            "Timezone": "Africa/Kinshasa"
        },
        {
            "Continent": "Africa",
            "Country": "Congo, The Democratic Republic of the",
            "City": "Mbuji Mayi",
            "Airport Name": "Mbuji Mayi Airport",
            "IATA": "MJM",
            "ICAO": "FZWA",
            "Latitude": -6.12124,
            "Longitude": 23.569,
            "Timezone": "Africa/Lubumbashi"
        },
        {
            "Continent": "Africa",
            "Country": "Congo, The Democratic Republic of the",
            "City": "Moba",
            "Airport Name": "Moba Airport",
            "IATA": "BDV",
            "ICAO": "FZRB",
            "Latitude": -7.067,
            "Longitude": 29.783,
            "Timezone": "Africa/Lubumbashi"
        },
        {
            "Continent": "Africa",
            "Country": "Congo, The Democratic Republic of the",
            "City": "Mweka",
            "Airport Name": "Mweka Airport",
            "IATA": "MEW",
            "ICAO": "FZVM",
            "Latitude": -4.85,
            "Longitude": 21.55,
            "Timezone": "Africa/Lubumbashi"
        },
        {
            "Continent": "Africa",
            "Country": "Congo, The Democratic Republic of the",
            "City": "Nioki",
            "Airport Name": "Nioki Airport",
            "IATA": "NIO",
            "ICAO": "FZBI",
            "Latitude": -2.7175,
            "Longitude": 17.6847,
            "Timezone": "Africa/Kinshasa"
        },
        {
            "Continent": "Africa",
            "Country": "Congo, The Democratic Republic of the",
            "City": "Nkolo Fuma",
            "Airport Name": "Nkolo Fuma Airport",
            "IATA": "NKL",
            "ICAO": "FZAR",
            "Latitude": -5.45,
            "Longitude": 14.833,
            "Timezone": "Africa/Kinshasa"
        },
        {
            "Continent": "Africa",
            "Country": "Congo, The Democratic Republic of the",
            "City": "Punia",
            "Airport Name": "Punia Airport",
            "IATA": "PUN",
            "ICAO": "FZOP",
            "Latitude": -1.367,
            "Longitude": 26.333,
            "Timezone": "Africa/Lubumbashi"
        },
        {
            "Continent": "Africa",
            "Country": "Congo, The Democratic Republic of the",
            "City": "Pweto",
            "Airport Name": "Pweto Airport",
            "IATA": "PWO",
            "ICAO": "FZQC",
            "Latitude": -8.467,
            "Longitude": 28.883,
            "Timezone": "Africa/Lubumbashi"
        },
        {
            "Continent": "Africa",
            "Country": "Congo, The Democratic Republic of the",
            "City": "Tshikapa",
            "Airport Name": "Tshikapa Airport",
            "IATA": "TSH",
            "ICAO": "FZUK",
            "Latitude": -6.43833,
            "Longitude": 20.7947,
            "Timezone": "Africa/Lubumbashi"
        },
        {
            "Continent": "Africa",
            "Country": "Congo, The Democratic Republic of the",
            "City": "Yangambi",
            "Airport Name": "Yangambi Airport",
            "IATA": "YAN",
            "ICAO": "FZIR",
            "Latitude": 0.783,
            "Longitude": 24.467,
            "Timezone": "Africa/Lubumbashi"
        },
        {
            "Continent": "Africa",
            "Country": "C\u00f4te d'Ivoire",
            "City": "",
            "Airport Name": "Bouake Airport",
            "IATA": "BYK",
            "ICAO": "DIBK",
            "Latitude": 7.7388,
            "Longitude": -5.07367,
            "Timezone": "Africa/Abidjan"
        },
        {
            "Continent": "Africa",
            "Country": "C\u00f4te d'Ivoire",
            "City": "",
            "Airport Name": "Daloa Airport",
            "IATA": "DJO",
            "ICAO": "DIDL",
            "Latitude": 6.79281,
            "Longitude": -6.47319,
            "Timezone": "Africa/Abidjan"
        },
        {
            "Continent": "Africa",
            "Country": "C\u00f4te d'Ivoire",
            "City": "",
            "Airport Name": "Korhogo Airport",
            "IATA": "HGO",
            "ICAO": "DIKO",
            "Latitude": 9.38718,
            "Longitude": -5.55666,
            "Timezone": "Africa/Abidjan"
        },
        {
            "Continent": "Africa",
            "Country": "C\u00f4te d'Ivoire",
            "City": "",
            "Airport Name": "Man Airport",
            "IATA": "MJC",
            "ICAO": "DIMN",
            "Latitude": 7.27207,
            "Longitude": -7.58736,
            "Timezone": "Africa/Abidjan"
        },
        {
            "Continent": "Africa",
            "Country": "C\u00f4te d'Ivoire",
            "City": "",
            "Airport Name": "San Pedro Airport",
            "IATA": "SPY",
            "ICAO": "DISP",
            "Latitude": 4.74672,
            "Longitude": -6.66082,
            "Timezone": "Africa/Abidjan"
        },
        {
            "Continent": "Africa",
            "Country": "C\u00f4te d'Ivoire",
            "City": "Abengourou",
            "Airport Name": "Abengourou Airport",
            "IATA": "OGO",
            "ICAO": "DIAU",
            "Latitude": 6.71556,
            "Longitude": -3.47028,
            "Timezone": "Africa/Abidjan"
        },